station_id,station_name,state,latitude,longitude,operator_id,last_verified,charger_count
474459,Big Banana Tesla Supercharger,NEW SOUTH WALES,-30.274110914833187,153.13253636781275,1,2026-01-25T00:52:00Z,2
474457,The Ponds Shopping Centre,NEW SOUTH WALES,-33.706177569208975,150.91276385955848,3625,2026-01-25T00:31:00Z,1
474435,Merriden Supercharger,WESTERN AUSTRALIA,-31.48102875567887,118.27822516113406,3534,2026-01-21T10:52:00Z,3
473174,Corrigin Charger,WESTERN AUSTRALIA,-32.33414525317049,117.87559193743596,3339,2026-01-21T10:36:00Z,1
472991,Mandurah Forum Mall,WESTERN AUSTRALIA,-32.53577960295785,115.74472408771112,3339,2026-01-12T08:04:00Z,1
472388,Balladonia - WA EV Network,WESTERN AUSTRALIA,-32.35432951007393,123.61954850785789,3339,2026-01-01T05:14:00Z,2
471411,Kaniva Tesla Supercharger,VICTORIA,-36.37875081316521,141.23908092739225,3534,2025-12-27T12:48:00Z,1
471035,"Gin Gin, QLD - Dear St",QUEENSLAND,-24.989456028418857,151.95345505093815,3534,2025-12-19T00:12:00Z,1
471034,Albury Showground,NEW SOUTH WALES,-36.06509679862696,146.93423532068664,3622,2025-12-18T23:32:00Z,1
471033,Dog on the Tuckerbox,NEW SOUTH WALES,-35.00129644033861,148.11056333609463,3388,2025-12-18T23:27:00Z,1
470793,Serpentine  Jarahdale Municipal Charger,WESTERN AUSTRALIA,-32.29770145683969,115.98462064728506,3339,2025-12-10T10:56:00Z,1
470672,Manjimup NRMA,WESTERN AUSTRALIA,-34.23994388198981,116.1481549246804,3388,2025-12-14T06:18:00Z,4
470663,Eneabba NRMA,WESTERN AUSTRALIA,-29.820973736299308,115.26611873091292,3339,2025-12-25T06:24:00Z,4
470502,The Promenade,WESTERN AUSTRALIA,-33.28240261266069,115.74093768217692,3339,2025-12-01T12:39:00Z,1
470328,14 Pascoe Street Parking - Apollo Bay,VICTORIA,-38.75839829625584,143.66892168961192,3398,2025-12-02T01:28:00Z,2
470327,Port Fairy Sea Scouts,VICTORIA,-38.38374006982256,142.23858472162362,3398,2025-12-02T00:23:00Z,2
470301,Maule Road,WESTERN AUSTRALIA,-32.0859150105917,115.88137068079531,3716,2025-11-28T08:27:00Z,1
470244,Scarborough Beach Road,WESTERN AUSTRALIA,-31.904578816550888,115.80624524662517,1,2025-11-26T18:27:00Z,1
470243,Osborne Park Supercharger,WESTERN AUSTRALIA,-31.90969571694111,115.81261416287998,3534,2025-11-26T18:17:00Z,6
470241,Subiaco DC Charger,WESTERN AUSTRALIA,-31.943967463962927,115.82864117108204,3339,2025-11-26T17:20:00Z,4
462699,Donato,VICTORIA,-38.256545398294726,145.0374398950537,1,2025-11-04T11:49:00Z,1
462383,Evie Mansfield,VICTORIA,-37.05103784342149,146.08673665423203,3398,2025-10-25T23:59:00Z,2
461964,Kennington Village Shopping Centre,VICTORIA,-36.77522424001277,144.305953060746,1,2025-10-12T01:39:00Z,1
461963,La Trobe University Bendigo,VICTORIA,-36.778689772739966,144.30153718662336,1,2025-10-12T01:29:00Z,1
461814,Common People Brewing,NEW SOUTH WALES,-28.696494360025127,153.50949385748115,1,2025-10-09T04:14:00Z,1
461735,Tesla Supercharger Keysborough,VICTORIA,-37.99265638766672,145.14482179447077,3534,2025-10-05T04:09:00Z,1
461734,Tesla Supercharger Nhill,VICTORIA,-36.332722244434336,141.651505985629,3534,2025-10-05T04:09:00Z,1
461732,Shell Recharge Corio,VICTORIA,-38.07542415453054,144.37025628239667,3625,2025-10-05T04:04:00Z,1
461731,Ampcharge Waurn Ponds,VICTORIA,-38.19919196237264,144.31698737047805,3625,2025-10-05T03:59:00Z,1
461730,Ampcharge Karingal Hub,VICTORIA,-38.15191969262739,145.16596676548875,3625,2025-10-05T03:59:00Z,1
461729,Bunnings Springvale,VICTORIA,-37.931885715813294,145.1527741495313,3622,2025-10-05T03:54:00Z,1
461728,Evie Doncaster East,VICTORIA,-37.7617875851612,145.16840228271178,3398,2025-10-05T03:54:00Z,1
461335,Tesla Supercharger Coolac ,NEW SOUTH WALES,-34.92406429306022,148.16582371947493,3534,2025-09-24T02:47:00Z,1
461192,Equinox Business Park,ACT,-35.32076185148239,149.09758722281003,3719,2025-09-20T15:15:00Z,1
460625,Tesla Supercharger Taree,NEW SOUTH WALES,-31.90775175578876,152.46206814642426,3534,2025-09-01T05:09:00Z,1
460617,Kew Tesla Supercharger,NEW SOUTH WALES,-31.63433387636207,152.7251587763015,3534,2025-09-01T05:09:00Z,1
460615,Tesla Supercharger Armidale,NEW SOUTH WALES,-30.51342702073365,151.66370928733022,3534,2025-09-01T05:09:00Z,1
460608,Evie Bruthen,VICTORIA,-37.70832751627004,147.83442755187457,3398,2025-09-01T05:09:00Z,2
460474,Georges Place,NEW SOUTH WALES,-34.41859867256016,150.90226317639872,3627,2025-08-25T07:52:00Z,1
460473,EVX Austinmer,NEW SOUTH WALES,-34.30096753205442,150.93993271999892,3627,2025-08-25T07:52:00Z,1
460472,Railway Parade Thirroul,NEW SOUTH WALES,-34.3177075435834,150.91844342618032,3627,2025-08-25T07:52:00Z,1
460406,Yanchep Station,WESTERN AUSTRALIA,-31.531513065394773,115.64576693855976,3716,2025-08-16T13:49:00Z,10
460405,Egliton Station,WESTERN AUSTRALIA,-31.58244937544582,115.6710031952469,3716,2025-08-16T15:41:00Z,10
460388,Bridport Visitor Information Centre,TASMANIA,-41.00362304292772,147.39490555873044,3339,2025-08-25T07:53:00Z,1
460387,Chargefox - Electric Highway Tasmania ,TASMANIA,-41.29976674576168,146.95180996460158,3339,2025-08-25T07:53:00Z,2
460385,Fremantle Village Private Wall Charger,WESTERN AUSTRALIA,-32.08053323173767,115.7607985219131,3339,2025-08-15T05:10:00Z,1
460280,New Italy Tesla SuperCharger,NEW SOUTH WALES,-29.153543930988555,153.29699805885593,3534,2025-08-25T07:52:00Z,1
460274,Fremantle Village,WESTERN AUSTRALIA,-32.08049146557816,115.7609355721654,3716,2025-08-15T05:01:00Z,2
460268,Edgewater Mini Mall,WESTERN AUSTRALIA,-31.77279103960022,115.78903506332732,3339,2025-08-09T08:44:00Z,1
460267,Warrick Grove Mall,WESTERN AUSTRALIA,-31.844519570688263,115.81063291060804,3339,2025-08-09T08:31:00Z,2
460266,Armadale Shopping Center Mall,WESTERN AUSTRALIA,-32.15264094012242,116.01653885290102,3398,2025-08-09T08:12:00Z,2
460223,NRMA - Deloraine,TASMANIA,-41.4839213062893,146.597764437431,3388,2025-08-07T05:39:00Z,2
460216,Waterview Motel,NEW SOUTH WALES,-29.44986685538678,153.20044831227457,1,2025-08-06T02:54:00Z,1
460104,Falls Creek Gully Carpark,VICTORIA,-36.86168140570233,147.2772150957304,3339,2025-07-30T00:34:00Z,1
460103,Mallacoota,VICTORIA,-37.55807482068432,149.75830562547122,3339,2025-07-30T00:24:00Z,2
459875,Dunsborough Centerpoint,WESTERN AUSTRALIA,-33.615314287255,115.10430380966926,3716,2025-07-17T12:55:00Z,2
459866,Busselton Supercharger,WESTERN AUSTRALIA,-33.65033638751631,115.3419239059312,3534,2025-12-01T12:18:00Z,1
459819,Erldunda Roadhouse,NORTHERN TERRITORY,-25.197621043537964,133.2007686397002,3388,2025-07-16T04:34:00Z,1
459292,Packenham Supercharger,VICTORIA,-38.06062002503898,145.45191319274613,3534,2025-07-08T02:49:00Z,1
459291,Abbotsford Supercharger ,VICTORIA,-37.809084572181135,144.99588508312934,3534,2025-07-08T02:44:00Z,1
313013,RAC Rockingham,WESTERN AUSTRALIA,-32.278405892367665,115.73343448114484,3339,2025-06-03T07:52:00Z,2
312994,Friday Drive,NEW SOUTH WALES,-36.49933162239967,148.3139436831202,3622,2025-06-06T15:29:00Z,5
312659,Evie 300kW Charger,NEW SOUTH WALES,-31.090167611011005,150.93009578041267,3398,2025-05-20T02:24:00Z,2
312348,UQ Sport Synthetic Playing Fields Carpark,QUEENSLAND,-27.49556916265702,153.01687437525777,1,2025-05-09T05:39:00Z,2
312274,Tesla Supercharger - Coles Tenterfield,NEW SOUTH WALES,-29.05609836727929,152.0175413889591,3534,2025-05-07T05:24:00Z,1
312205,Raintrees Shopping Centre,QUEENSLAND,-16.92767444041077,145.74067618608592,3398,2025-05-05T11:24:00Z,2
312202,North Coogee,WESTERN AUSTRALIA,-32.103569887176576,115.76179172018556,3339,2025-05-02T08:23:00Z,1
311913,Ibis Styles - Orange,NEW SOUTH WALES,-33.29624580559161,149.1158097006989,3775,2025-04-28T10:59:00Z,1
311851,Ti Tree Food Barn And Accomodation,NORTHERN TERRITORY,-22.12841968655352,133.41291638188062,1,2025-04-28T11:02:00Z,1
311704,Moonee Beach,NEW SOUTH WALES,-30.204419650385248,153.14979824525767,3534,2025-04-28T11:06:00Z,1
311439,Mid Western - Rylstone Memorial Ha,NEW SOUTH WALES,-32.7975704730334,149.9704138553882,3658,2025-04-01T20:29:00Z,1
311438,Orange City Council - City Library,NEW SOUTH WALES,-33.280686670068434,149.10299728353368,3622,2025-04-01T20:24:00Z,2
311437,Orange City Council - Lake Canobolas,NEW SOUTH WALES,-33.301609034288234,149.02770582128016,3622,2025-04-01T20:19:00Z,1
311308,Tesla Destination Charger,NEW SOUTH WALES,-33.883393295749826,151.1945968746586,3534,2025-03-29T03:34:00Z,1
311246,RAA Charge Burnside,SOUTH AUSTRALIA,-34.93801594919658,138.6425800415402,3339,2025-03-29T03:34:00Z,1
309473,Jamison Plaza,ACT,-35.25359343298052,149.07064139540887,3398,2025-03-29T03:39:00Z,2
309176,Margret River Tourist Park,WESTERN AUSTRALIA,-33.959075795124406,115.06844919683816,1,2025-03-02T22:02:00Z,1
309175,Voyager Estate,WESTERN AUSTRALIA,-33.99681515228804,115.05174922517313,1,2025-03-02T21:56:00Z,2
309174,Witchcliffe Eco Village Cluster 1B,WESTERN AUSTRALIA,-34.02471728976703,115.10472719347104,3339,2025-03-02T21:39:00Z,1
309173,Witchcliffe Eco Village Cluster 1C,WESTERN AUSTRALIA,-34.02340379655558,115.10517303012352,3339,2025-03-02T21:40:00Z,1
309172,Witchcliffe Eco Village Cluster 1A,WESTERN AUSTRALIA,-34.02317492846884,115.10296392250676,3339,2025-03-02T21:32:00Z,1
309094,Beverly Sonic Charge,WESTERN AUSTRALIA,-32.10997423531976,116.92472445036526,1,2025-02-24T10:40:00Z,1
308829,Tesla Supercharger Runaway Bay,QUEENSLAND,-27.9133368394958,153.40052953561377,3534,2025-03-04T03:29:00Z,1
308828,Ampcharge Reedy Creek,QUEENSLAND,-28.093761590025125,153.39130286982396,3625,2025-03-04T03:29:00Z,2
308827,Evie Beenleigh,QUEENSLAND,-27.71412673473004,153.18962982741107,3398,2025-03-04T03:29:00Z,1
308826,Evie Beaudesart,QUEENSLAND,-27.989984369173,152.99919697266995,3398,2025-03-04T03:29:00Z,1
308750,Tesla Supercharger South Melbourne,VICTORIA,-37.83227022248282,144.9609633571161,23,2025-03-04T03:29:00Z,1
308742,Livingstone Market Mall,WESTERN AUSTRALIA,-32.08562557744585,115.915856491348,3339,2025-02-12T07:02:00Z,2
308738,Tesla Supercharger Bankstown,NEW SOUTH WALES,-33.933123083981414,151.0285550577326,3534,2025-03-04T03:29:00Z,1
308599,RACV Healsville,VICTORIA,-37.65071911937986,145.50301488024843,3339,2025-02-06T00:24:00Z,2
308598,Evie Healsville,VICTORIA,-37.65406544922198,145.51428135787194,3398,2025-02-06T00:19:00Z,2
308597,Evie Chirnside Park,VICTORIA,-37.761143550893365,145.3120760296531,3398,2025-02-06T00:19:00Z,2
308596,Tesla Supercharger Oakleigh Repair Centre,VICTORIA,-37.91568317695367,145.10327868938475,3534,2025-10-05T03:54:00Z,1
308595,Jolt Cheltenham,VICTORIA,-37.95675410011873,145.0413433811873,3529,2025-02-05T23:39:00Z,2
308594,Jolt Black Rock,VICTORIA,-37.97570246970103,145.01742302760965,3529,2025-02-05T23:34:00Z,2
308593,Jolt Berwick Springs Hotel,VICTORIA,-38.05976565896848,145.33777518791914,3529,2025-02-05T23:34:00Z,2
308267,CTR Foster,VICTORIA,-38.65334183522216,146.20090536375835,3339,2025-01-25T23:59:00Z,1
308266,CTR Meeniyan,VICTORIA,-38.577399770082174,146.0131581030072,3339,2025-01-25T23:54:00Z,1
308265,Tesla Supercharger Goulburn South,NEW SOUTH WALES,-34.77317841750358,149.69280797132302,3534,2025-02-17T16:56:00Z,1
308264,Evie Yarra Juncion,VICTORIA,-37.78094746065134,145.61331093083584,3398,2025-01-25T23:19:00Z,2
308263,Evie Bannockburn,VICTORIA,-38.04790103443605,144.17035966698813,3398,2025-01-25T23:19:00Z,2
308262,Coles Sebastopol,VICTORIA,-37.599568029281286,143.84045921173038,3339,2025-01-25T23:14:00Z,1
308229,Evie Glen Gala Village,VICTORIA,-37.79308442111111,144.7896023171707,3339,2025-01-25T05:49:00Z,2
308228,Toyota Altona,VICTORIA,-37.832781169763166,144.82753568527227,3339,2025-01-25T05:44:00Z,2
308227,Lollypop Creek Community Centre,VICTORIA,-37.909988077571576,144.61367550280465,3339,2025-01-25T05:39:00Z,1
308226,Ampcharge Werribee,VICTORIA,-37.899759968148494,144.6650849021937,3625,2025-01-25T05:39:00Z,1
308225,BP Pulse,VICTORIA,-37.7557555131601,144.7410636793341,3659,2025-01-25T05:14:00Z,1
308160,RAA Kingston SE,SOUTH AUSTRALIA,-36.82862578575707,139.84961594515414,3339,2025-01-23T07:44:00Z,3
308159,RAA Naracoorte,SOUTH AUSTRALIA,-36.957104904405874,140.74352876205376,3339,2025-01-23T07:44:00Z,2
308158,RAA Coonalpyn,SOUTH AUSTRALIA,-35.69525828198586,139.85657638646347,3339,2025-01-23T07:44:00Z,2
308029,RAA Charge Marla Travellers Rest,SOUTH AUSTRALIA,-27.30500995290457,133.62169364848148,3339,2025-01-23T07:44:00Z,1
307990,Woolworths Yass,NEW SOUTH WALES,-34.845647791374056,148.9156385427242,3339,2025-01-23T07:44:00Z,1
307989,Woolworths Fishermans Bend,VICTORIA,-37.8313475403691,144.92982685129846,3339,2025-01-23T07:44:00Z,1
307988,Evie Richmond Library,VICTORIA,-37.825531454943984,144.99874510755922,3398,2025-01-23T07:44:00Z,1
307898,Riverton Mall,WESTERN AUSTRALIA,-32.039141558623534,115.90778289825715,3398,2025-06-03T10:19:00Z,4
307788,Ampcharge Barkly Square,VICTORIA,-37.77658521241312,144.9639271835984,3625,2025-01-23T07:44:00Z,1
307787,Tesla Supercharger Bordertown,SOUTH AUSTRALIA,-36.29806431043085,140.75704069780193,23,2025-01-23T07:44:00Z,1
307786,RAA Bordertown,SOUTH AUSTRALIA,-36.30916560839312,140.7802897527946,3339,2025-01-23T07:44:00Z,3
307785,RAA Mount Gambier,SOUTH AUSTRALIA,-37.83093305008087,140.7803969736217,3339,2025-01-23T07:44:00Z,3
307784,Tesla Supercharger Mount Gambier,SOUTH AUSTRALIA,-37.83518604477705,140.8022529347133,3534,2025-01-23T07:44:00Z,1
307775,ENGIE - Chadstone 2,VICTORIA,-37.88820940951108,145.08494077130194,3595,2025-01-23T07:44:00Z,1
307774,Ampcharge Sandown,VICTORIA,-37.94161999001956,145.16671110078272,3625,2025-01-23T07:44:00Z,1
307773,Ampcharge Cheltenham,VICTORIA,-37.99571529046778,145.182222569087,3625,2025-01-23T07:44:00Z,1
307772,Evie Portland,VICTORIA,-38.34684478419478,141.60283197044578,3398,2025-01-23T07:44:00Z,2
307771,Evie Hamilton,VICTORIA,-37.742657443427255,142.0204391323382,3398,2025-01-23T07:44:00Z,2
307770,Geelong West Veledrome,VICTORIA,-38.129239527848746,144.34542725752488,3339,2025-01-23T07:44:00Z,1
307769,Evie Barabool Heights Plaza,VICTORIA,-38.16095627974979,144.30595213669608,3398,2025-01-23T07:44:00Z,2
307768,Harden Country Club,NEW SOUTH WALES,-34.5627690756498,148.36103557280512,3622,2025-01-23T07:44:00Z,1
307767,Cootamundra Library,NEW SOUTH WALES,-34.63980461006843,148.02613856207262,3622,2025-01-23T07:44:00Z,1
307766,Evie St Arnaud,VICTORIA,-36.61528155544704,143.25846054416633,3398,2025-01-23T07:44:00Z,2
307765,Evie Avoca,VICTORIA,-37.09014021086068,143.47445272035532,3398,2025-01-23T07:44:00Z,1
307764,Trentham Visitor Information Centre,VICTORIA,-37.38857348160439,144.32539419117688,3339,2025-01-23T07:44:00Z,2
307763,Evie Cowes,VICTORIA,-38.4507421042261,145.2404278198406,3398,2025-01-23T07:44:00Z,2
307762,Evie Traralgon,VICTORIA,-38.19729526031544,146.54141869877014,3398,2025-01-23T07:44:00Z,2
307761,Tesla Supercharger Traralgon,VICTORIA,-38.19254657886111,146.527465028071,23,2025-01-23T07:44:00Z,1
307760,Tesla Supercharger Lucas,VICTORIA,-37.54333900451204,143.78422184851445,3534,2025-01-23T07:44:00Z,1
307759,Ampol Foodary,VICTORIA,-38.24620744489461,143.98330610676584,3625,2025-01-23T07:44:00Z,2
307698,Eastlake Parade - Streetlight SL217828,ACT,-35.312486897855344,149.14620754929297,3546,2025-01-06T17:12:00Z,1
307478,Melville City - LeisureFit,WESTERN AUSTRALIA,-32.03968803198156,115.83200365710913,3775,2024-12-27T07:32:00Z,1
307477,Melville City - City Hall,,-32.0322316337417,115.83247239799904,3775,2025-11-23T04:53:00Z,1
306891,Buckland Kent St,TASMANIA,-42.60668821556477,147.71852154472168,1,2025-06-22T07:04:00Z,1
306858,Buckland Kent St,TASMANIA,-42.60669976786134,147.7185327664647,1,2025-01-23T07:59:00Z,1
306743,Armadale Fitness and Auqatic Center,WESTERN AUSTRALIA,-32.13378217875158,116.00360230509732,3775,2024-12-04T16:58:00Z,1
306626,Port Headland (WA EV Network),WESTERN AUSTRALIA,-20.30921496552933,118.59299891016776,3339,2025-01-29T15:32:00Z,2
306581,WA EV Network - Fortescue River,WESTERN AUSTRALIA,-21.29578391571632,116.13807973599133,3339,2024-11-27T15:33:00Z,2
306224,Perth City Supercharger,WESTERN AUSTRALIA,-31.953457974189973,115.83912294028778,3534,2024-12-22T14:52:00Z,1
306096,Sandfire (WA EV Network),WESTERN AUSTRALIA,-19.768818135351367,121.09160068026648,3339,2025-01-29T15:33:00Z,2
306095,WA EV Network - Whim Creek,WESTERN AUSTRALIA,-20.838466287478184,117.83409361484922,3339,2024-11-15T15:56:00Z,1
306072,Ampol Foodary North Yunderup,WESTERN AUSTRALIA,-32.5671631849554,115.79829772601356,3625,2024-11-14T15:49:00Z,2
306018,Redgrave Park,NEW SOUTH WALES,-34.81320838371845,147.2014695724827,3622,2024-12-08T01:54:00Z,1
306017,Ganmain Craft Cottage,NEW SOUTH WALES,-34.79340665268592,147.03869475917048,3622,2024-12-08T01:54:00Z,1
306016,Middy's Wagga East,NEW SOUTH WALES,-35.123640112987474,147.3992802491099,3609,2024-12-08T01:54:00Z,2
306015,Griffith City Volkswagen,NEW SOUTH WALES,-34.30220873271793,146.0827951103297,3339,2024-12-08T01:54:00Z,1
306014,Owen Toyota,NEW SOUTH WALES,-34.299877486665665,146.0781598113113,3339,2024-11-14T09:54:00Z,1
306013,Griffith Leagues Club Southside,NEW SOUTH WALES,-34.29247666125356,146.05114295544826,3534,2024-12-08T01:54:00Z,1
305980,NRMA Ararat,VICTORIA,-37.28516365724295,142.92645264670017,3388,2024-11-12T01:29:00Z,2
305979,NRMA Marong,VICTORIA,-36.73546633080104,144.13398199267476,3388,2024-11-12T01:24:00Z,2
305978,NRMA Wycheproof,VICTORIA,-36.07623961780974,143.22518416666645,3388,2024-11-12T01:19:00Z,2
305977,NRMA Ouyen,VICTORIA,-35.071599703997784,142.31988019027813,3388,2024-11-12T01:14:00Z,2
305975,Armadale City,WESTERN AUSTRALIA,-32.150681222892466,116.01697710197168,1,2024-12-04T05:15:00Z,4
305540,Autobahn Armadale,WESTERN AUSTRALIA,-32.14798632595281,115.9853635090774,3339,2024-10-20T06:05:00Z,1
304459,RAA Charge Brickworks,SOUTH AUSTRALIA,-34.9131230518513,138.56301692754607,3339,2024-10-14T08:09:00Z,3
304358,NRMA Mandurah,WESTERN AUSTRALIA,-32.50979875144507,115.73981288369129,3339,2024-09-24T10:58:00Z,2
304335,All Saints College,WESTERN AUSTRALIA,-32.048870705546086,115.86542217360795,3716,2024-09-23T10:23:00Z,1
304318,Hunter Street,QUEENSLAND,-27.59639338763696,152.7462094147789,3625,2024-10-14T08:09:00Z,2
304196,Monto's Grand Hotel,QUEENSLAND,-24.862625832767137,151.12151830708194,3388,2024-09-17T13:28:00Z,2
303938,Bidyadanga Turnoff (WA EV Network),WESTERN AUSTRALIA,-18.721350107077058,121.87899345971688,3339,2025-01-29T15:34:00Z,2
303937,Ngumpan (WA EV Network),WESTERN AUSTRALIA,-18.749254525895964,126.11371953941124,3339,2024-09-10T09:37:00Z,1
303716,NRMA Midland ,WESTERN AUSTRALIA,-31.8962683,116.01022,3339,2024-09-01T05:20:00Z,2
303446,K Park Playhouse Lane,SOUTH AUSTRALIA,-34.925115,138.595206,3339,2024-08-25T01:12:00Z,2
302585,BP South Bound,WESTERN AUSTRALIA,-32.30983528619279,115.83240066607163,3659,2024-08-14T03:03:00Z,1
302397,Miller Grove,VICTORIA,-37.875016711913474,145.128081929617,3622,2025-01-06T17:09:00Z,1
302211,Green Head Supercharger,WESTERN AUSTRALIA,-30.07009045348772,114.96554294156368,23,2025-05-05T03:02:00Z,6
301868,Eli Waters Shopping Centre,QUEENSLAND,-25.28604155101316,152.8158038522372,3398,2024-07-29T05:35:00Z,1
301260,Minilya WA EV Network,WESTERN AUSTRALIA,-23.75224090712273,114.01430399748614,3339,2024-07-17T14:38:00Z,2
300856,BP Pulse Northbound ,WESTERN AUSTRALIA,-32.30935248843228,115.83043488599236,3659,2024-08-14T02:59:00Z,1
300802,Gunabul HomeStead,QUEENSLAND,-26.199375967349063,152.6570568531024,1,2024-07-13T01:09:00Z,1
300801,Willowbank Raceway,QUEENSLAND,-27.68917090278832,152.6532223508002,3624,2024-07-26T06:19:00Z,1
300463,Spotted Gum Retreat Holiday Accommodation,NEW SOUTH WALES,-36.30497745879883,150.12519241466634,1,2024-09-22T14:55:00Z,1
300418,Watermarc Carpark (LG),VICTORIA,-37.70397622211952,145.10521824749753,1,2024-07-08T03:19:00Z,1
300155,Tesla Supercharger Campbellfield,VICTORIA,-37.68912458660884,144.956624655591,23,2024-06-25T11:24:00Z,1
300154,Tesla Supercharger Albury,NEW SOUTH WALES,-36.07928408317759,146.91360130129283,3534,2024-06-25T11:24:00Z,1
300153,Tesla Supercharger Wagga Wagga,NEW SOUTH WALES,-35.13104690746256,147.3397865366278,3534,2024-06-25T11:19:00Z,1
300152,Evie Cranbourne Homemaker Centre,VICTORIA,-38.08489638497555,145.27849713747787,3398,2024-06-25T11:14:00Z,2
300151,Engie Cranbourne Park,VICTORIA,-38.10907515763703,145.28176239248455,3595,2024-06-25T11:14:00Z,2
300150,BP Pulse Cranbourne,VICTORIA,-38.110286646748186,145.2640707648552,3659,2024-06-25T11:14:00Z,2
300149,Telsa Supercharger Box Hill,VICTORIA,-37.83781642298442,145.1346849142019,3534,2024-06-25T11:14:00Z,1
300148,Tesla Supercharger Brighton East,VICTORIA,-37.907528089556905,145.01117779850802,3534,2024-06-25T11:09:00Z,1
300147,Bridge Street,VICTORIA,-37.94495495500977,145.00192929573643,3625,2024-06-25T11:09:00Z,2
300146,Bay Trail,VICTORIA,-38.00841347461177,145.0848841496986,3398,2024-06-25T11:04:00Z,2
299958,Dongra Electrical,WESTERN AUSTRALIA,-29.251767146809307,114.93533678947053,3622,2024-06-13T15:43:00Z,2
299904,Club Lithgow,NEW SOUTH WALES,-33.485305997724765,150.1520457902966,3622,2024-06-17T11:11:00Z,1
299879,Chargefox Charging Station,NEW SOUTH WALES,-34.07085887727317,150.80665583075495,3339,2024-06-11T09:50:00Z,2
299804,EPM,WESTERN AUSTRALIA,-31.97974757849547,115.97197588423592,3339,2024-06-05T16:09:00Z,1
298483,Pardoo Road House (WA EV Network),WESTERN AUSTRALIA,-20.05385007735012,119.8271567468621,3339,2024-05-09T00:19:00Z,2
298208,Blackbutts Road,NEW SOUTH WALES,-33.741938777072164,151.21364536627425,1,2024-05-10T08:24:00Z,1
298207,Opposite Malbara Crescent,NEW SOUTH WALES,-33.741938777072164,151.21364536627425,1,2024-05-10T08:24:00Z,1
298092,Waikerie Civic Centre,SOUTH AUSTRALIA,-34.18231041374674,139.98631021340225,3339,2024-05-10T08:24:00Z,3
298091,Kirriemuir Motel and Cabins,SOUTH AUSTRALIA,-34.18605180138638,139.99661283387684,3339,2024-05-10T08:24:00Z,1
297859,Terrace Central [Tesla],NEW SOUTH WALES,-32.76374294675019,151.742101372786,3534,2024-05-10T08:24:00Z,1
297730,Ellendon Street,NEW SOUTH WALES,-35.25805966511065,149.4398991158709,3622,2024-04-25T11:18:00Z,1
297509,Bannister Road,WESTERN AUSTRALIA,-32.80115991667573,116.47522932344803,3775,2024-04-12T09:56:00Z,1
297166,Spud's Roadhouse Motel,SOUTH AUSTRALIA,-31.2557851,136.80266,3339,2024-04-02T11:44:00Z,2
297165,Kulgera Roadhouse and Caravan Park,NORTHERN TERRITORY,-25.840736817666908,133.29974959294498,1,2024-04-02T11:29:00Z,1
297042,AmpCharge Charging Station,NEW SOUTH WALES,-33.765456662016454,150.62149884005026,3625,2024-03-30T04:59:00Z,2
296683,Margaret River (WA EV Network),WESTERN AUSTRALIA,-33.95359045406676,115.07079111266364,3339,2024-03-16T01:49:00Z,2
296536,Kalgoorlie (WA EV Network),WESTERN AUSTRALIA,-30.75011132987668,121.47511538931816,3339,2024-03-16T01:57:00Z,2
296045,Tesla Superchargers Yass,NEW SOUTH WALES,-34.84380365342569,148.9141018891671,3534,2024-03-06T09:49:00Z,1
296044,Tesla Supercharger Holbrook,NEW SOUTH WALES,-35.7229067434558,147.3171930996939,23,2024-03-06T09:49:00Z,1
296038,KFC Goulburn,NEW SOUTH WALES,-34.772316512568395,149.69267286725506,3339,2025-01-24T09:21:00Z,1
296037,Evie Leongatha,VICTORIA,-38.47811653249701,145.94369632320195,3398,2025-01-24T09:21:00Z,2
296036,CTR Leongatha,VICTORIA,-38.47607406598741,145.9449660995017,3339,2025-01-24T09:21:00Z,2
296035,Evie Korumburra,VICTORIA,-38.43454681668418,145.82550050274392,3398,2025-01-23T11:01:00Z,2
296034,CTR Korumburra,VICTORIA,-38.43293285267044,145.82559498595492,3339,2025-01-24T09:20:00Z,2
296033,Evie Warrigul,VICTORIA,-38.16759449972774,145.95340965722312,3398,2024-03-06T05:39:00Z,2
296032,Engie Monash University,VICTORIA,-38.15200425352916,145.13493764315962,3595,2025-01-09T08:53:00Z,2
295995,RAA Ceduna,SOUTH AUSTRALIA,-32.12627372979047,133.6729436190849,3339,2024-03-01T08:45:00Z,1
295994,NRMA Cabarita Beach,NEW SOUTH WALES,-28.33164512189506,153.56421838432203,3388,2024-03-06T17:53:00Z,4
295993,Evie Ararat,VICTORIA,-37.282013366626494,142.9297245107835,3398,2024-03-04T03:24:00Z,2
295992,Tesla Superchargers Stawell,VICTORIA,-37.054694820216696,142.7814197610627,3534,2025-01-09T08:52:00Z,1
295991,Evie Stawell,VICTORIA,-37.05706536578791,142.78103976991747,3398,2024-03-04T03:24:00Z,2
295990,Evie Benalla,VICTORIA,-36.55114428189935,145.98425664687772,3398,2024-03-04T03:19:00Z,2
295989,Evie Mornington,VICTORIA,-38.22449869065465,145.03964281641652,3398,2024-06-25T11:04:00Z,3
295979,Barrenjoey Road,NEW SOUTH WALES,-33.597285174014345,151.31997898476163,3529,2024-03-03T23:09:00Z,2
295940,Nanutarra (WA EV Network),WESTERN AUSTRALIA,-22.543198410447303,115.50141571783809,3626,2024-03-03T09:23:00Z,2
295863,Puma INGLEWOOD,QUEENSLAND,-28.41795526622294,151.07778635013676,1,2024-02-28T02:54:00Z,1
290685,RAA Charge Marla Travellers Rest,SOUTH AUSTRALIA,-27.303895427172144,133.62317371162635,3339,2025-01-20T16:05:00Z,2
289988,Kojonup Supercharger,WESTERN AUSTRALIA,-33.83754542029569,117.1578115341685,3534,2024-03-28T12:18:00Z,1
289972,Narrogin Trailer Park,WESTERN AUSTRALIA,-32.937064398774,117.16399188426648,3339,2024-02-05T05:41:00Z,1
289971,Narrogin Memorial Park ,WESTERN AUSTRALIA,-32.93414343252756,117.17480124057865,3339,2024-02-05T04:19:00Z,1
289970,Old Courthouse Museum ,WESTERN AUSTRALIA,-32.933670519982606,117.17677737808448,3626,2024-02-05T04:14:00Z,1
289312,Wyalkatchem Community Resource Center,WESTERN AUSTRALIA,-31.17959764215292,117.3794409383206,1,2024-08-31T06:43:00Z,1
289309,Car Park,QUEENSLAND,-28.21735094177685,152.03086649397966,3835,2025-12-29T06:02:00Z,2
289009,Warnambool Tourist Information Centre,VICTORIA,-38.389181,142.484993,3339,2023-12-30T23:34:00Z,2
288968,Coles Bairnsdale,VICTORIA,-37.82480937950314,147.63246014953563,23,2024-01-15T02:41:00Z,1
288939,Bairnsdale Coles,VICTORIA,-37.82454530904592,147.6327352303539,23,2024-01-15T02:41:00Z,1
288618,WA EV Network - Bunbury,WESTERN AUSTRALIA,-33.32517168635446,115.642665842138,3626,2024-09-25T21:28:00Z,2
288441,Roma Explorer Inn,QUEENSLAND,-26.575093433135848,148.80762514285902,1,2023-12-24T05:29:00Z,1
281066,RAA Charge Whyalla Westland Shopping Centre,SOUTH AUSTRALIA,-33.02641308008939,137.53226864294578,3339,2023-12-05T03:49:00Z,1
281065,RAA Charge Wharflands,SOUTH AUSTRALIA,-32.48927,137.7612186,3339,2023-12-04T23:49:00Z,2
280995,Overlander Roadhouse (WA EV Network),WESTERN AUSTRALIA,-26.41184549747159,114.46404594375008,3339,2024-01-10T13:30:00Z,2
280715,Thornlie Square Mall,WESTERN AUSTRALIA,-32.05512902897771,115.96339054908071,3398,2023-11-29T11:17:00Z,3
280253,Beatty Park Leisure Centre,WESTERN AUSTRALIA,-31.936258468207264,115.8497013709943,3716,2023-11-25T15:44:00Z,1
280226,Rocland Nuriootpa,SOUTH AUSTRALIA,-34.4602252,138.9866954,3339,2023-11-25T00:49:00Z,3
280205,NRMA - Joondalup,WESTERN AUSTRALIA,-31.75771714527498,115.7715464322112,3339,2025-02-02T10:30:00Z,2
280195,BP Pulse Ferny Grove,QUEENSLAND,-27.402355423317843,152.93697981150945,3659,2023-11-24T12:59:00Z,1
280046,RRA Charge Wudinna Hall - Chargefox,SOUTH AUSTRALIA,-33.047159,135.461943,3339,2023-11-30T09:57:00Z,1
280045,Kimba Roadhouse - Chargefox,SOUTH AUSTRALIA,-33.14584,136.415203,3339,2023-11-30T15:16:00Z,1
280044,Apex Energy Australia,SOUTH AUSTRALIA,-34.991588982756106,138.57595688588066,45,2023-11-20T08:49:00Z,1
279254,Coogee Supercharger,WESTERN AUSTRALIA,-32.102866290875234,115.76244884692244,23,2024-01-15T10:46:00Z,1
279252,Kununarra (WA EV Network),WESTERN AUSTRALIA,-15.779058583778236,128.7404381438349,3339,2023-10-18T15:33:00Z,2
279192,Heathcote Visitor Centre,VICTORIA,-36.92370548184756,144.7100660165538,3398,2023-10-30T19:17:00Z,2
279191,Wallan,VICTORIA,-37.413967109460415,144.9791065326649,3398,2023-10-22T08:33:00Z,2
279180,Ampol Foodary Pheasants Nest Southbound,NEW SOUTH WALES,-34.2834466714301,150.63939668827243,3625,2023-10-29T11:00:00Z,2
279179,Ampol Foodary Pheasants Nest Northbound,NEW SOUTH WALES,-34.2829974272134,150.63679286992692,3625,2023-10-18T01:57:00Z,2
279052,Blue Marlin Court,NEW SOUTH WALES,-37.051215336112,149.90155657766792,1,2023-10-18T01:57:00Z,1
279051,Seahorse Inn Hotel,NEW SOUTH WALES,-37.10326647778291,149.879377715497,1,2023-10-18T01:57:00Z,1
278691,RAA Charge Cowell,SOUTH AUSTRALIA,-33.68530286444153,136.92905700914315,3339,2023-12-04T18:29:00Z,1
278667,Dalwallinu,WESTERN AUSTRALIA,-30.27621389393004,116.66182170267824,3339,2023-10-17T10:58:00Z,2
278575,Exmouth (WA EV Network),WESTERN AUSTRALIA,-21.93740456440712,114.13060539906304,3626,2023-10-02T13:05:00Z,2
278541,HBF Arena - Joondalup,WESTERN AUSTRALIA,-31.73530856799269,115.76057078337676,3622,2023-10-09T02:47:00Z,1
278525,Ampol Waitara,NEW SOUTH WALES,-33.71060645301792,151.1025062095589,3625,2023-10-09T02:47:00Z,1
274740,Bicheno Town Centre,TASMANIA,-41.87471231875492,148.3041358766775,1,2025-06-22T07:09:00Z,3
274592,Cedar Lodge Motel,NEW SOUTH WALES,-30.5168745388638,151.66662986871611,45,2023-10-09T02:47:00Z,1
274586,Ampol Kilsyth,VICTORIA,-37.82365941817221,145.2959481777906,3625,2023-09-18T14:17:00Z,2
274485,Hilton Garden Inn Albany,WESTERN AUSTRALIA,-35.029504038354794,117.88711964420804,3623,2023-09-20T23:03:00Z,1
274480,Brookton (WA EV Network),WESTERN AUSTRALIA,-32.36748025468421,117.00946148863972,3626,2026-01-21T06:50:00Z,2
274452,NRMA Fast Charger Gunnedah,NEW SOUTH WALES,-30.978295982227703,150.25129064038157,1,2023-09-18T01:27:00Z,2
274407,Hyden (WA EV Network),WESTERN AUSTRALIA,-32.44938187858875,118.86590392183903,3626,2026-01-27T10:00:00Z,2
274395,Morowa Destination Charger,WESTERN AUSTRALIA,-29.210721611002967,116.00847792163336,3622,2023-09-10T10:40:00Z,2
274390,Bicheno East Coast Holiday Park - EV charging station ,TASMANIA,-41.87508668420113,148.30190462959308,1,2023-09-18T01:27:00Z,1
274329,Heyfield Apex Park,VICTORIA,-37.98035192583418,146.7866369371215,3339,2023-09-08T03:22:00Z,1
274328,North Bellarine Aquatic Centre,VICTORIA,-38.188088367705056,144.55520001587047,3339,2023-09-08T03:19:00Z,4
274302,Jerramungup (WA EV Network),WESTERN AUSTRALIA,-33.93987597013291,118.92073932501204,3626,2023-12-14T09:38:00Z,2
274300,Ravensthorpe (WA EV Network),WESTERN AUSTRALIA,-33.58080346048715,120.04577841886328,3626,2024-07-03T11:41:00Z,2
274299,RAA Charge - Kimba Bowling Club,SOUTH AUSTRALIA,-33.1351214258362,136.41678887852186,3339,2023-11-30T09:55:00Z,1
274204,Denham (WA EV Highway),WESTERN AUSTRALIA,-25.92796500689909,113.53579323666712,3626,2023-10-24T08:45:00Z,2
274144,NRMA Short Street Car Park,NEW SOUTH WALES,-32.58948930999341,149.58496449340686,3388,2024-06-14T12:05:00Z,2
274115,Karratha (WA EV Network),WESTERN AUSTRALIA,-20.73538816872096,116.84749086556644,3626,2023-09-11T13:26:00Z,2
274108,Wongan Hills Vistor Center,WESTERN AUSTRALIA,-30.89283905452806,116.71613902661392,1,2023-09-01T11:09:00Z,1
274102,Morley Sport and Recreation Centre,WESTERN AUSTRALIA,-31.89248383322912,115.89594640150904,3622,2023-09-01T07:29:00Z,2
274078,Warnambool Supercharger,VICTORIA,-38.380939,142.518958,3534,2023-08-31T12:12:00Z,1
274077,Colac Supercharger,VICTORIA,-38.34137606647682,143.59297402313945,3534,2023-08-31T12:10:00Z,1
274075,Geelong Supercharger,VICTORIA,-38.06479650458628,144.38238251338635,3534,2023-08-31T12:09:00Z,1
274074,Yea Supercharger,VICTORIA,-37.21006161015167,145.4261473877039,3534,2023-08-31T22:11:00Z,1
274073,ENGIE - Royal Australian Mint,ACT,-35.31872,149.093821,3339,2023-08-31T11:13:00Z,2
274072,Electric Highway Tasmania - Kingston,TASMANIA,-42.975674,147.311542,3339,2023-08-31T11:09:00Z,2
274056,Ampol Foodary Penrith,NEW SOUTH WALES,-33.7430336465433,150.69296375875626,3625,2023-08-31T09:47:00Z,2
274000,Kings Park (WA EV Network),WESTERN AUSTRALIA,-31.96675221866004,115.8223778363822,3626,2023-09-07T10:26:00Z,2
273935,The Mount Druitt Hub,NEW SOUTH WALES,-33.767499717192706,150.82239944831394,3339,2023-09-06T03:31:00Z,1
273933,Chargefox,NEW SOUTH WALES,-33.770837178135245,150.84515556849738,3339,2023-09-06T03:31:00Z,1
273905,Cowra Driver Reviver Rest Area,NEW SOUTH WALES,-33.8356251851398,148.68186745491855,3534,2023-08-25T08:22:00Z,1
273904,Leppington Village Shopping Centre,NEW SOUTH WALES,-33.961508128351525,150.80570305129015,3339,2023-09-06T03:31:00Z,1
273903,Boorowa Ex-services and Citizens Club,NEW SOUTH WALES,-34.43723217352768,148.7237343048496,3624,2023-08-25T08:22:00Z,1
273870,bp pulse Seven Hills,NEW SOUTH WALES,-33.76725,150.952041,3659,2023-08-23T12:22:00Z,1
273869,bp pulse Blacksoil,QUEENSLAND,-27.579063,152.712931,3659,2023-08-23T12:21:00Z,1
273868,bp pulse Nambour,QUEENSLAND,-26.630979038266453,152.960453125286,3659,2023-08-23T12:20:00Z,1
273867,bp pulse Hamilton,QUEENSLAND,-27.437537,153.07008,3659,2023-08-23T12:16:00Z,1
273755,Civic Centre,VICTORIA,-37.89737439271215,144.67054059560462,3339,2023-08-23T00:56:00Z,3
273535,EV Charging Australia,QUEENSLAND,-27.973719,152.994503,3339,2025-12-27T11:24:00Z,1
273534,ENGIE - Chadstone,VICTORIA,-37.88437022631904,145.08316779641655,3339,2023-08-16T11:02:00Z,2
273474,Merredin (WA EV Highway),WESTERN AUSTRALIA,-31.482505370896668,118.2781852110237,3626,2026-01-21T10:39:00Z,2
273458,Carnarvon (WA EV Network),WESTERN AUSTRALIA,-24.88347242039225,113.65628450455053,3626,2024-02-23T10:11:00Z,2
273437,East Brisbane [bp pulse],QUEENSLAND,-27.479742,153.043682,3659,2023-08-09T12:52:00Z,1
273436,Wiley Park [bp pulse],NEW SOUTH WALES,-33.91939202071956,151.06669418522023,3659,2023-08-09T12:50:00Z,2
273435,Logan Motorway [bp pulse],QUEENSLAND,-27.64035655063292,153.0095965529904,3659,2023-08-09T12:45:00Z,2
273434,Springwood [bp pulse],QUEENSLAND,-27.622308783587712,153.12819192141268,3659,2023-08-09T12:40:00Z,2
273433,Coffs Harbour [bp pulse],NEW SOUTH WALES,-30.291705053434413,153.1183335669906,3659,2023-08-09T12:33:00Z,2
273432,bp pulse Loganholme,QUEENSLAND,-27.6845457753354,153.18963641316446,3659,2023-08-09T12:27:00Z,3
273431,bp pulse Dandenong North,VICTORIA,-37.970797096657705,145.22316104545723,3659,2023-08-09T12:14:00Z,1
273430,bp pulse Rye,VICTORIA,-38.37130601612926,144.8277248633259,3659,2023-08-09T12:12:00Z,1
273429,bp pulse Albany Forrest,QUEENSLAND,-27.357963044567576,152.96944606011124,3659,2023-08-09T12:08:00Z,2
273428,bp pulse Rosehill,NEW SOUTH WALES,-33.818996055217895,151.02170364175703,3659,2023-08-09T12:02:00Z,1
273427,bp pulse Sydenham,NEW SOUTH WALES,-33.916260575133784,151.17311326359567,3659,2023-08-09T11:35:00Z,1
273426,Maroochy Plaza [bp pulse],QUEENSLAND,-26.65561596418697,153.07350136591492,3659,2023-08-09T11:32:00Z,1
273425,Fairy Meadow [bp pulse],NEW SOUTH WALES,-34.40299801963799,150.89157957672126,3659,2023-08-09T11:24:00Z,1
273394,Glenrowan South [bp pulse],VICTORIA,-36.43943308112671,146.2499032852465,3659,2023-08-08T00:03:00Z,2
273393,Glenrowan North [bp pulse],VICTORIA,-36.43833642761878,146.2481571029768,3659,2023-08-08T00:02:00Z,3
273356,Macquarie Regional Library Wellington,NEW SOUTH WALES,-32.555451644419065,148.94186794794365,3658,2023-08-24T08:47:00Z,1
273341,bp pulse Merrifield,VICTORIA,-37.53426998045639,144.89828573356567,3659,2023-08-04T22:53:00Z,2
273318,Newling Reserve,VICTORIA,-38.2451409999477,144.17299786561424,3529,2023-08-04T06:02:00Z,1
273238,Ampol Foodary Baldivis,WESTERN AUSTRALIA,-32.33110206204209,115.82079377764968,3622,2023-08-01T07:22:00Z,2
273235,Kwinana City Centro,WESTERN AUSTRALIA,-32.24065444817922,115.81355718837756,3622,2023-08-01T05:49:00Z,2
273227,Electric Highway - Kingaroy,QUEENSLAND,-26.54023612191117,151.83832086354795,3339,2023-07-29T10:22:00Z,3
273226,Nerang Admin,QUEENSLAND,-27.98457931723788,153.33902087264016,3339,2023-07-29T10:13:00Z,2
273225,Soldiers Point Marina,NEW SOUTH WALES,-32.70132961987918,152.06273775785866,3339,2023-07-29T10:08:00Z,2
273224,New Broadwater Parklands,QUEENSLAND,-27.96006306878132,153.41231494799337,3339,2023-07-29T10:05:00Z,2
273223,Kurrawa Surf Club,QUEENSLAND,-28.029580796113866,153.43460209485096,3339,2023-07-29T10:02:00Z,2
273222,Vicinity Centres - Grand Plaza,QUEENSLAND,-27.66241706105511,153.0403591131698,3339,2024-11-28T08:55:00Z,2
273221,27 - 49 Browns Plains Road,QUEENSLAND,-27.663992390175515,153.0411196361111,3339,2023-07-29T09:57:00Z,1
273220,Lismore City Council,NEW SOUTH WALES,-28.806512,153.278955,3339,2025-09-05T00:49:00Z,2
273219,Bundall Chamers,QUEENSLAND,-28.00184961746832,153.41528386738196,3339,2023-07-29T09:44:00Z,2
273206,Rydges Port Macquarie,NEW SOUTH WALES,-31.42838118857074,152.908821311353,1,2023-08-24T08:47:00Z,1
273195,Byron Bay Library,NEW SOUTH WALES,-28.643331391697856,153.61569695569148,3339,2023-07-28T12:55:00Z,2
273194,Hepburn Springs Bathhouse,VICTORIA,-37.31033013058219,144.14010887525797,3339,2023-07-28T08:17:00Z,2
273073,Warmun Roadhouse (WA EV Network),WESTERN AUSTRALIA,-17.017056005797656,128.21775683357424,3626,2023-10-20T03:16:00Z,2
272905,Billabong Homestead Hotel,WESTERN AUSTRALIA,-26.81653584774535,114.6141092018064,3626,2024-09-06T12:00:00Z,1
272784,Lancaster Motor Group,NEW SOUTH WALES,-32.57682535962756,151.18453691259265,3609,2023-08-24T08:47:00Z,1
272714,Electric Highway - Dingo,QUEENSLAND,-23.646873090081343,149.3325053332834,3339,2023-07-17T13:39:00Z,3
272713,Electric Highway - Ipswich,QUEENSLAND,-27.616321690924863,152.7586172248131,3339,2023-07-17T12:51:00Z,3
272712,Gold Coast Sports & Leisure Centre,QUEENSLAND,-28.004299394733387,153.36456618761417,3339,2023-07-17T12:45:00Z,2
272711,Bus Stop Sales - Rocklea,QUEENSLAND,-27.55238666391736,153.00880127325075,3339,2023-07-17T12:39:00Z,2
272709,Electric Highway - Esk,QUEENSLAND,-27.239039102114774,152.42027885374284,3317,2023-07-17T12:37:00Z,3
272708,ENGIE - Lake Haven Centre,NEW SOUTH WALES,-33.24078932377033,151.50325247968817,3339,2023-07-17T12:19:00Z,1
272707,Miami Aquatic Centre,QUEENSLAND,-28.061726469417813,153.4293860165546,3339,2023-07-17T11:22:00Z,2
272702,The Station Oxley,QUEENSLAND,-27.553059245373817,152.97525758314129,3398,2023-07-17T06:54:00Z,4
272701,Indooroopilly,QUEENSLAND,-27.49838316297592,152.97362245069473,3398,2023-07-17T06:52:00Z,4
272700,Red Rooster Guildford,NEW SOUTH WALES,-33.85283452159095,150.99575854229482,3398,2023-07-17T06:55:00Z,4
272695,Best Western Ranges Hotel,WESTERN AUSTRALIA,-20.75216129654284,116.84864209690846,1,2023-07-17T00:36:00Z,1
272694,Northbridge Plaza,NEW SOUTH WALES,-33.809374,151.208591,3398,2023-07-16T23:09:00Z,4
272693,Jamisontown,NEW SOUTH WALES,-33.770379031934034,150.67371849780716,3398,2023-07-16T23:05:00Z,2
272689,Dorhauer Lane,NEW SOUTH WALES,-33.88847179022024,151.23760032945688,3398,2023-07-16T22:09:00Z,2
272688,Casula Mall,NEW SOUTH WALES,-33.947906375047246,150.90105410921717,3398,2023-07-16T22:04:00Z,4
272687,Brendale Service Centre,QUEENSLAND,-27.32834626539292,152.98746683129357,3398,2023-07-17T06:54:00Z,4
272686,Raglan Street West,NEW SOUTH WALES,-33.83121718107124,151.24368057896396,3398,2023-07-16T22:00:00Z,4
272685,Springwood,QUEENSLAND,-27.612304,153.124421,3398,2023-07-16T21:58:00Z,4
272684,BP Ashfield,NEW SOUTH WALES,-33.87421821418127,151.12682969039508,3398,2023-07-16T21:56:00Z,4
272676,Jindalee Home,QUEENSLAND,-27.533780259789047,152.94849091743436,3398,2023-07-16T12:54:00Z,4
272675,Swansea,NEW SOUTH WALES,-33.0833,151.6333,3398,2023-07-16T12:52:00Z,4
272674,Noosa Village,QUEENSLAND,-26.400474,153.064833,3398,2023-07-16T12:49:00Z,4
272673,Leichhardt Marketplace,NEW SOUTH WALES,-33.883514,151.150017,3398,2023-07-16T12:44:00Z,4
272672,Victoria Point,QUEENSLAND,-27.5867871,153.283693717,3398,2023-07-16T12:41:00Z,4
272671,Pacific Fair,QUEENSLAND,-28.0353512,153.4274028,3398,2023-07-16T12:38:00Z,4
272670,Caloundra Shopping Centre,QUEENSLAND,-26.803426,153.12491,3398,2025-10-13T23:15:00Z,4
272666,Barossa Central Shopping Centre,SOUTH AUSTRALIA,-34.4790652,138.9615012,3339,2023-07-16T06:32:00Z,1
272665,"Elizabeth City Centre, ",SOUTH AUSTRALIA,-34.7189959,138.6663354,3339,2023-07-16T06:21:00Z,1
272661,Billabong Trailer Park,WESTERN AUSTRALIA,-26.817509801079424,114.61472149842416,1,2024-11-15T08:43:00Z,1
272644,Northpoint Shopping Centre,QUEENSLAND,-27.541346,151.952256,3398,2023-07-15T14:00:00Z,2
272643,Lutwyche Market Central,QUEENSLAND,-27.422167,153.034685,3398,2023-07-15T13:57:00Z,4
272642,Montague Markets,QUEENSLAND,-27.4856857,153.00120821,3398,2023-07-15T13:52:00Z,4
272641,Ashfield Mall,NEW SOUTH WALES,-33.8895642,151.1235986,3398,2023-07-15T13:50:00Z,4
272640,Birkdale Fair,QUEENSLAND,-27.4915472,153.2179852,3398,2023-07-15T13:39:00Z,4
272639,Bundamba,QUEENSLAND,-27.588131,152.821959,3398,2023-07-15T13:31:00Z,2
272638,Gasworks Plaza,QUEENSLAND,-27.4504829,153.0443855,3398,2023-07-15T13:24:00Z,4
272637,Allambie Grove Business Park,NEW SOUTH WALES,-33.751303,151.2433284,3398,2023-07-15T12:27:00Z,2
272636,Red Rooster ,NORTHERN TERRITORY,-12.396092,130.8968483,3398,2023-07-15T12:24:00Z,4
272635,BP Caringbah,NEW SOUTH WALES,-34.03295211277035,151.12520883189632,3398,2023-07-15T12:20:00Z,4
272634,Eastgate Bondi Junction,NEW SOUTH WALES,-33.892967,151.248028,3398,2023-07-15T12:17:00Z,4
272633,Belrose Home,NEW SOUTH WALES,-33.703118,151.212917,3398,2023-07-15T12:14:00Z,4
272632,Civic Plaza 88 Christie,NEW SOUTH WALES,-33.823861,151.195326,3398,2023-07-15T12:12:00Z,4
272631,Evie Darwin,NORTHERN TERRITORY,-12.459284,130.836153,3398,2023-07-15T12:09:00Z,4
272630,Royal Randwick,NEW SOUTH WALES,-33.915187,151.240972,3398,2023-07-15T12:06:00Z,4
272629,Robina Central,QUEENSLAND,-28.081588,153.381888,3398,2023-07-15T12:00:00Z,2
272628,Brickworks Ferry Road,QUEENSLAND,-27.980749,153.409711,3398,2023-07-15T12:01:00Z,4
272627,Macquarie Centre,NEW SOUTH WALES,-33.777565954445315,151.12056384466786,3398,2023-07-15T12:00:00Z,4
272624,ENGIE - Greenway Wetherill Park,NEW SOUTH WALES,-33.850403,150.89840155,3339,2023-07-15T09:24:00Z,1
272622,Pennant Hills Toyota,NEW SOUTH WALES,-33.7366211,151.0743388,3339,2023-07-15T09:21:00Z,1
272620,Berowra Tennis Centre,NEW SOUTH WALES,-33.621379,151.1494478,3339,2023-07-15T09:11:00Z,1
272619,The Heffron Centre,NEW SOUTH WALES,-33.97374,151.236646,3339,2023-07-15T09:08:00Z,8
272618,ENGIE - DFO Homebush,NEW SOUTH WALES,-33.855576,151.076681,3339,2023-07-16T13:41:00Z,1
272617,ENGIE - Roselands Shopping Centre,NEW SOUTH WALES,-33.935,151.069205,3339,2023-07-15T09:01:00Z,1
272616,NRMA - Sydney,NEW SOUTH WALES,-33.9055215,151.2128,3339,2023-07-15T08:58:00Z,3
272615,ENGIE - Warriewood Square,NEW SOUTH WALES,-33.695602,151.2962878,3339,2023-07-15T07:59:00Z,1
272614,Mirvac South Eveleigh,NEW SOUTH WALES,-33.8955812,151.1958121,3339,2023-07-15T07:56:00Z,6
272613,TLE Electrical Artarmon,NEW SOUTH WALES,-33.81845312500111,151.18932889926964,3339,2023-07-15T07:52:00Z,2
272612,Bendigo Kangan Institute,VICTORIA,-36.7527695,144.2940181,3339,2023-07-15T07:35:00Z,2
272611,Motors Devonport,TASMANIA,-41.179441,146.341294,3339,2023-07-15T07:29:00Z,2
272610,10 Esplanade,TASMANIA,-42.155391,145.32604,3339,2023-07-15T07:25:00Z,3
272608,Strata Equity â€“ Hunter Werribee,VICTORIA,-37.901930594530896,144.6625784145474,3339,2023-07-15T07:15:00Z,3
272607,Electric Highway Tasmania - Maydena,TASMANIA,-42.754949,146.628993,3339,2023-07-15T07:12:00Z,3
272606,Electric Highway Tasmania - Dunalley,TASMANIA,-42.886808,147.81389,3339,2023-07-15T07:05:00Z,2
272605,Electric Highway Tasmania - Derby,TASMANIA,-41.149411,147.803691,3339,2023-07-15T07:03:00Z,3
272604,Electric Highway Tasmania - Fingal,TASMANIA,-41.638,147.9681,3339,2023-07-15T07:00:00Z,3
272603,The Isla,NEW SOUTH WALES,-35.731097,150.197277,3339,2023-07-15T06:56:00Z,1
272602,Rocket @ The End Of The Road,TASMANIA,-43.43165,146.97408,3339,2023-07-15T06:55:00Z,1
272601,Mansi on Raymond,VICTORIA,-38.101629,147.065543,3339,2023-07-15T06:53:00Z,1
272600,Electric Highway Tasmania - Cygnet,TASMANIA,-43.161979080863325,147.07772323414196,3339,2023-07-15T06:49:00Z,3
272599,Inveresk QVMAG Car Park,TASMANIA,-41.425875,147.139979,3339,2023-07-15T06:46:00Z,1
272598,George Town Council Chambers,TASMANIA,-41.105627281858055,146.82315392988272,3339,2024-09-27T12:46:00Z,2
272592,Jolt Bayswster,VICTORIA,-37.84108696617519,145.2666187431746,3529,2023-07-15T02:32:00Z,2
272574,Electric Highway Tasmania - Triabunna,TASMANIA,-42.50810955517955,147.91002661194875,3339,2023-07-14T14:34:00Z,3
272573,50 Learmonth Street,VICTORIA,-38.26770792670353,144.6589785355144,3339,2023-07-14T14:26:00Z,4
272572,Armstrong Creek East Community Hub,VICTORIA,-38.231759419255376,144.36927996323692,3339,2023-07-14T14:24:00Z,3
272571,Wuality Resort Siesta,NEW SOUTH WALES,-36.045905,146.943511,3339,2023-07-14T14:20:00Z,4
272570,Blue Tongue Industries,VICTORIA,-38.197502248120415,144.34395122104382,3339,2023-07-14T14:16:00Z,1
272569,RACV Solar Grovedale,VICTORIA,-38.19759412236032,144.34487185372615,3339,2023-07-14T14:14:00Z,1
272568,Chadstone Shopping Centre,VICTORIA,-37.88497430576943,145.08243117285895,3339,2023-07-14T14:12:00Z,6
272567,Eltham Leisure Centre,VICTORIA,-37.72302764419204,145.14217983897862,3339,2023-07-14T13:59:00Z,2
272566,Devon Street Car Park,VICTORIA,-37.79675756180921,145.27982712620957,3339,2023-07-14T17:37:00Z,2
272565,Callaghan Motors,VICTORIA,-38.36320203022315,142.4561073425345,3339,2023-07-14T13:54:00Z,1
272564,Midlands Golf Club,VICTORIA,-37.52794764296954,143.85802750554984,3339,2023-07-14T13:52:00Z,3
272563,Deakin University Waurn Ponds,VICTORIA,-38.19671590570452,144.29935439201148,3339,2023-07-14T13:49:00Z,2
272562,Woolworths Heidelberg,VICTORIA,-37.75910544295768,145.06876762326635,3339,2024-07-03T08:41:00Z,8
272561,Austin Tower Carpark Level B1,VICTORIA,-37.75745813437603,145.05918510936715,3339,2023-07-14T13:41:00Z,2
272542,Cobblebank Village,VICTORIA,-37.7144019574638,144.60143699904745,3339,2023-07-14T13:35:00Z,2
272541,Dindi Naturals,VICTORIA,-37.10296645372912,145.61620856939197,3339,2023-07-14T07:26:00Z,1
272540,Stewarts Bay Lodge,TASMANIA,-43.13907166604574,147.8548439357172,3339,2023-07-14T07:25:00Z,2
272537,Electric Highway Tasmania - Ouse,TASMANIA,-42.48504801756201,146.7100908639125,3339,2023-07-14T06:08:00Z,3
272536,Yarra Valley Nissan,VICTORIA,-37.754997221186045,145.3637260206866,3339,2023-07-14T06:05:00Z,1
272535,Brighton Council Chambers,TASMANIA,-42.75097184541446,147.27872555026147,3339,2023-07-14T06:03:00Z,1
272534,Fleming Park,VICTORIA,-37.769132479580406,144.9747860386588,3339,2023-07-14T05:59:00Z,2
272533,David Street Car Park,VICTORIA,-37.771645139851486,144.96173089792444,3339,2023-07-14T05:57:00Z,1
272532,RMIT Brunswick,VICTORIA,-37.7716796666272,144.95818485880557,3339,2023-07-14T05:55:00Z,1
272531,Moonee Ponds Central,VICTORIA,-37.76583087874345,144.92352649174768,3339,2023-07-14T05:53:00Z,2
272521,BP Pulse Eastern Creek,NEW SOUTH WALES,-33.811041669720204,150.85030018744214,3659,2023-08-09T12:21:00Z,1
272511,Cataract Gorge Basin Car Park,TASMANIA,-41.44637646555024,147.12284889511938,3339,2023-07-13T07:59:00Z,1
272510,Jackson Volkswagen,TASMANIA,-41.45022658817194,147.14154103560344,3339,2023-07-13T07:50:00Z,2
272508,Audi Centre Hobart,TASMANIA,-42.87538883111667,147.32416098548657,3339,2023-07-13T07:43:00Z,1
272507,Electric Highway Tasmania - Waratah,TASMANIA,-41.4429562299098,145.52665769580165,3339,2023-07-13T07:39:00Z,2
272506,Tas Hydro Power Station Heritage Site,TASMANIA,-42.12462669442656,146.74664613345436,3339,2023-07-13T07:35:00Z,2
272504,Hotel Bruny,TASMANIA,-43.3217997269792,147.2422590158638,3339,2023-07-13T07:30:00Z,2
272501,Tuggeranong CSCC,ACT,-35.41502698377792,149.06342879909937,3398,2023-07-12T23:13:00Z,2
272500,Murrumbateman Country Inn,NEW SOUTH WALES,-34.96941392055333,149.03001688933142,3398,2023-09-18T05:45:00Z,2
272499,Evie Adelaide Hills,SOUTH AUSTRALIA,-35.00971247867212,138.75901747075886,3398,2023-07-13T03:54:00Z,3
272498,Evie Woden,ACT,-35.348299676937806,149.08890913353355,3398,2023-07-12T22:33:00Z,2
272497,Hotel REalm,ACT,-35.312198318325976,149.1333088744247,3398,2023-07-12T21:55:00Z,4
272496,Evie Dapto Mall,NEW SOUTH WALES,-34.49497612676224,150.79547723050382,3398,2023-07-12T21:47:00Z,4
272486,Evie Mildura,VICTORIA,-34.183567985291354,142.1585658445057,3398,2023-07-12T14:18:00Z,2
271067,Evie Wangaratta,VICTORIA,-36.35361729522813,146.3252141757206,3398,2023-07-10T02:38:00Z,2
271066,Charging the Regions Traralgon,VICTORIA,-38.19562583791989,146.5329076841424,3398,2025-01-09T08:52:00Z,2
271065,Evie Alexandra,VICTORIA,-37.19177622193456,145.71117802098246,3398,2023-07-22T23:09:00Z,2
271064,Evie Dunkeld,VICTORIA,-37.65017530125832,142.34254760364854,3398,2023-07-10T02:38:00Z,2
271063,Evie Camperdown,VICTORIA,-38.230321252822165,143.1458213510811,3398,2023-07-10T02:38:00Z,2
271062,Victoria Street,VICTORIA,-37.42305178823792,144.562626054862,3398,2023-07-10T02:38:00Z,2
271060,Evie Yarrawonga,VICTORIA,-36.010175172605514,146.00330137579863,3398,2023-07-10T02:38:00Z,2
271037,Evie Warracknabeal,VICTORIA,-36.25068312709375,142.39379449793637,3398,2023-07-10T02:38:00Z,2
271033,Evie Cohuna,VICTORIA,-35.80838371437618,144.22123701963017,3398,2023-07-10T02:38:00Z,2
271024,Evie Lakes Entrance,VICTORIA,-37.88192619723392,147.97348946515365,3398,2023-07-10T02:38:00Z,2
271022,Evie Meredith,VICTORIA,-37.84437816290739,144.0768346824019,3398,2023-07-10T02:38:00Z,2
271017,Evie Maffra,VICTORIA,-37.96731873526982,146.97479206718913,3398,2023-07-10T02:38:00Z,2
271014,Evie Flinders,VICTORIA,-38.474526184383976,145.0186233435888,3398,2023-07-10T02:38:00Z,2
271011,Kingston Town Shopping Centre,TASMANIA,-42.980209156103385,147.30374043545635,3398,2023-07-10T02:38:00Z,4
271006,Evie Dartmoor,VICTORIA,-37.92221290806473,141.27619651056017,3398,2024-01-05T00:51:00Z,2
271003,Evie Kerang,VICTORIA,-35.734343178074404,143.92168541640507,3398,2023-07-10T02:38:00Z,2
270996,Local Village Carrum Downs,VICTORIA,-38.08842705357127,145.1825268436774,3398,2023-07-10T02:38:00Z,4
270994,Bayside Willansby Ave,VICTORIA,-37.90610169777272,145.00363488616335,3398,2023-07-10T02:38:00Z,4
270950,JET Charge Office,VICTORIA,-37.82858393063794,144.93443851602245,3339,2023-07-10T02:38:00Z,3
270949,RMIT - City Campus,VICTORIA,-37.80624795114712,144.96401596254236,3339,2023-07-10T02:38:00Z,2
270947,Hilton Coles,WESTERN AUSTRALIA,-32.06408827282525,115.78180730214648,3339,2025-03-21T05:15:00Z,1
270936,City of Stonnington,VICTORIA,-37.8558376330929,145.0295635713096,3339,2023-07-10T02:38:00Z,2
270935,ClydeStone Square,VICTORIA,-38.09340993256419,145.34171416795755,3339,2023-07-10T02:38:00Z,2
270934,ENGIE - Bayside Centre,VICTORIA,-38.13983274747568,145.12422212753893,3339,2023-07-15T07:36:00Z,1
270933,Creswick Vicitors Information Centre,VICTORIA,-37.42256775700739,143.89407103114934,3339,2023-07-10T02:38:00Z,2
270910,Penguin Parade Car Park,VICTORIA,-38.505470002342136,145.14849508723148,3339,2023-07-10T02:38:00Z,2
270909,Engie - The Glen,VICTORIA,-37.87707026526765,145.16444504069057,3339,2023-09-28T21:51:00Z,2
270908,ENGIE - VIctoria Gardens,VICTORIA,-37.81230000849669,145.01104431147348,3339,2023-07-10T02:38:00Z,2
270905,Omeo - Tongio Road,VICTORIA,-37.10120685500498,147.5913216311938,3339,2023-07-10T02:38:00Z,2
270904,Wine by Sam,VICTORIA,-37.02797706541075,145.14294410402647,3339,2023-07-10T02:38:00Z,2
270903,Monash Caufield,VICTORIA,-37.87609755140018,145.0437890823424,3339,2023-07-10T02:38:00Z,2
270902,Yackandandah Community Development Company,VICTORIA,-36.31377673712394,146.838576031665,3339,2023-07-10T02:38:00Z,2
270847,Evie - Bright,VICTORIA,-36.72909821085958,146.9621075161064,3398,2023-07-09T10:10:00Z,2
267588,Deni RSL,NEW SOUTH WALES,-35.535453,144.967298,1,2023-06-30T17:31:00Z,1
267563,Ampol Melville ,WESTERN AUSTRALIA,-32.031412015833354,115.815207494245,3625,2023-07-28T09:03:00Z,2
267547,Bunnings Tarneit,,-37.83430858506595,144.69884313714417,3339,2023-07-13T08:06:00Z,1
267498,Evie Beaufort,VICTORIA,-37.42886557503572,143.38285570096986,3398,2023-07-10T02:38:00Z,3
267345,Chargefox Teachers Mutual Bank,NEW SOUTH WALES,-33.77239824531827,150.84348282464293,3339,2023-07-13T08:39:00Z,1
267315,Ampol Derrimut,VICTORIA,-37.80519464533884,144.75198926317552,3625,2023-07-04T03:26:00Z,2
267111,Ampol East Perth,WESTERN AUSTRALIA,-31.948662865419383,115.86948347276189,3625,2023-06-21T07:34:00Z,2
266872,Chatswood Chase Chargefox,NEW SOUTH WALES,-33.79511781061279,151.18644036778977,3339,2023-07-13T08:44:00Z,1
266767,BP Pulse,NEW SOUTH WALES,-33.36290641211102,151.44446174596283,3659,2023-08-09T11:36:00Z,2
266620,Exeter Supercharger,NEW SOUTH WALES,-34.60933240617118,150.2298476327678,23,2023-06-08T12:43:00Z,1
266586,EVIE Cameron Park,NEW SOUTH WALES,-32.8964286163983,151.59758681049271,3398,2023-09-18T17:57:00Z,2
266540,Evie Lawson,NEW SOUTH WALES,-33.72070368975226,150.4297109802278,3398,2023-07-15T13:41:00Z,4
266538,Blaxland Supercharger,NEW SOUTH WALES,-33.74525300296909,150.61025805036633,23,2023-06-08T12:45:00Z,1
266501,Campbelltown Supercharger,NEW SOUTH WALES,-34.07151792013103,150.80730085250025,23,2023-06-08T03:24:00Z,1
266500,NRMA Scone,NEW SOUTH WALES,-32.050443549876185,150.86657130895486,3388,2023-06-08T03:24:00Z,2
266499,NRMA Glen Innes,NEW SOUTH WALES,-29.738464518791687,151.7363027621517,3388,2023-06-08T03:24:00Z,2
